name,specialization,clinic,contact,slots,location,lat,lng
Dr. Ravi Kumar,General Physician,City Health Clinic,9876543210,"6:00,6:15,6:30,6:45",Hyderabad,17.3850,78.4867
Dr. Priya Sharma,Dermatologist,Skin Care Center,9845612370,"6:00,6:30,7:00,7:30",Hyderabad,17.4126,78.4772
Dr. Anil Reddy,Neurologist,Brain & Spine Hospital,9812345670,"5:00,5:30,6:00,6:30",Hyderabad,17.3950,78.4700
Dr. Sunita Rao,Gastroenterologist,Digestive Health Clinic,9798765430,"6:15,6:45,7:15,7:45",Hyderabad,17.4400,78.4983
Dr. Kiran Patel,Pulmonologist,Lung Care Hospital,9756781230,"4:00,4:30,5:00,5:30",Hyderabad,17.3616,78.4747